{"ruhleben":{"type":"stop","id":"900000025202","name":"U Ruhleben","location":{"type":"location","latitude":52.525589,"longitude":13.241902},"products":{"suburban":false,"subway":true,"tram":false,"bus":true,"ferry":false,"express":false,"regional":false}},"wittenberg":{"type":"stop","id":"900000550093","name":"Lutherstadt Wittenberg, Hbf","location":{"type":"location","latitude":51.867534,"longitude":12.661999},"products":{"suburban":true,"subway":false,"tram":false,"bus":false,"ferry":false,"express":true,"regional":true}},"nollendorf":{"type":"stop","id":"900000056102","name":"U Nollendorfplatz","location":{"type":"location","latitude":52.499646,"longitude":13.353826},"products":{"suburban":false,"subway":true,"tram":false,"bus":true,"ferry":false,"express":false,"regional":false}},"pankow":{"type":"stop","id":"900000130002","name":"S+U Pankow","location":{"type":"location","latitude":52.567281,"longitude":13.412283},"products":{"suburban":true,"subway":true,"tram":true,"bus":true,"ferry":false,"express":false,"regional":false}},"warschauer":{"type":"stop","id":"900000120004","name":"S+U Warschauer Str.","location":{"type":"location","latitude":52.505768,"longitude":13.449157},"products":{"suburban":true,"subway":true,"tram":true,"bus":true,"ferry":false,"express":false,"regional":false}},"uhland":{"type":"stop","id":"900000023301","name":"U Uhlandstr.","location":{"type":"location","latitude":52.502739,"longitude":13.32623},"products":{"suburban":false,"subway":true,"tram":false,"bus":true,"ferry":false,"express":false,"regional":false}},"krumme lanke":{"type":"stop","id":"900000050201","name":"U Krumme Lanke","location":{"type":"location","latitude":52.442619,"longitude":13.240356},"products":{"suburban":false,"subway":true,"tram":false,"bus":true,"ferry":false,"express":false,"regional":false}},"innsbrucker":{"type":"stop","id":"900000054105","name":"S+U Innsbrucker Platz","location":{"type":"location","latitude":52.478099,"longitude":13.342878},"products":{"suburban":true,"subway":true,"tram":false,"bus":true,"ferry":false,"express":false,"regional":false}}}